[
  {
    "id": "ZTX-J20250001",
    "name": "Amani Odeh",
    "course": "Fundamentals of Programming Using Java",
    "hours": "4 Training Hours",
    "issuedBy": "ZenTr1x Crew",
    "date": "2025-11-17"
  },
  {
    "id": "ZTX-J20250002",
    "name": "Mohammed Abu Namos",
    "course": "Fundamentals of Programming Using Java",
    "hours": "4 Training Hours",
    "issuedBy": "ZenTr1x Crew",
    "date": "2025-11-17"
  },
  {
    "id": "ZTX-J20250003",
    "name": "Mohamed Kamal",
    "course": "Fundamentals of Programming Using Java",
    "hours": "4 Training Hours",
    "issuedBy": "ZenTr1x Crew",
    "date": "2025-11-17"
  },
  {
    "id": "ZTX-J20250004",
    "name": "Ahmed Ammar",
    "course": "Fundamentals of Programming Using Java",
    "hours": "4 Training Hours",
    "issuedBy": "ZenTr1x Crew",
    "date": "2025-11-17"
  },
  {
    "id": "ZTX-J20250005",
    "name": "Noor Al-Mohammed",
    "course": "Fundamentals of Programming Using Java",
    "hours": "4 Training Hours",
    "issuedBy": "ZenTr1x Crew",
    "date": "2025-11-17"
  },
  {
    "id": "ZTX-J20250006",
    "name": "Joud Khatatbh",
    "course": "Fundamentals of Programming Using Java",
    "hours": "4 Training Hours",
    "issuedBy": "ZenTr1x Crew",
    "date": "2025-11-17"
  },
  {
    "id": "ZTX-J20250007",
    "name": "Qais Al-Tamimi",
    "course": "Fundamentals of Programming Using Java",
    "hours": "4 Training Hours",
    "issuedBy": "ZenTr1x Crew",
    "date": "2025-11-17"
  },
  {
    "id": "ZTX-J20250008",
    "name": "Zaid Nimer",
    "course": "Fundamentals of Programming Using Java",
    "hours": "4 Training Hours",
    "issuedBy": "ZenTr1x Crew",
    "date": "2025-11-17"
  },
  {
    "id": "ZTX-J20250009",
    "name": "Amal Al-Badawi",
    "course": "Fundamentals of Programming Using Java",
    "hours": "4 Training Hours",
    "issuedBy": "ZenTr1x Crew",
    "date": "2025-11-17"
  },
  {
    "id": "ZTX-J20250010",
    "name": "Abdulrahman AL-Hammad",
    "course": "Fundamentals of Programming Using Java",
    "hours": "4 Training Hours",
    "issuedBy": "ZenTr1x Crew",
    "date": "2025-11-17"
  },
  {
    "id": "ZTX-J20250011",
    "name": "Roaa Al-Rantisi",
    "course": "Fundamentals of Programming Using Java",
    "hours": "4 Training Hours",
    "issuedBy": "ZenTr1x Crew",
    "date": "2025-11-17"
  },
  {
    "id": "ZTX-J20250012",
    "name": "Yazan Al-Khalailah",
    "course": "Fundamentals of Programming Using Java",
    "hours": "4 Training Hours",
    "issuedBy": "ZenTr1x Crew",
    "date": "2025-11-17"
  },
  {
    "id": "ZTX-J20250013",
    "name": "RaneemÂ Al-Rousan",
    "course": "Fundamentals of Programming Using Java",
    "hours": "4 Training Hours",
    "issuedBy": "ZenTr1x Crew",
    "date": "2025-11-17"
  },
  {
    "id": "ZTX-J20250014",
    "name": "Rand Sabbah",
    "course": "Fundamentals of Programming Using Java",
    "hours": "4 Training Hours",
    "issuedBy": "ZenTr1x Crew",
    "date": "2025-11-17"
  },
  {
    "id": "ZTX-J20250015",
    "name": "Mariam Ghazal",
    "course": "Fundamentals of Programming Using Java",
    "hours": "4 Training Hours",
    "issuedBy": "ZenTr1x Crew",
    "date": "2025-11-17"
  }  
]
